<?xml version="1.0" encoding="utf-8"?>
<ArrayOfVolunteer>
  <Volunteer>
    <Id>214429151</Id>
    <FullName>Noa Levy</FullName>
    <PhoneNumber>0541234567</PhoneNumber>
    <Email>noa.levy@example.com</Email>
    <TypeDistance>Aerial</TypeDistance>
    <Job>Volunteer</Job>
    <Active>true</Active>
    <Password>W1nter2024</Password>
    <FullAddress>Rothschild Boulevard 1, Tel Aviv, Israel</FullAddress>
    <Latitude>32.0631559</Latitude>
    <Longitude>34.7688262</Longitude>
    <MaxReading>20</MaxReading>
  </Volunteer>
  <Volunteer>
    <Id>214432767</Id>
    <FullName>Omer Cohen</FullName>
    <PhoneNumber>0532345678</PhoneNumber>
    <Email>omer.cohen@example.com</Email>
    <TypeDistance>Aerial</TypeDistance>
    <Job>Volunteer</Job>
    <Active>true</Active>
    <Password>M@rk3tX9</Password>
    <FullAddress>King George 10, Haifa, Israel</FullAddress>
    <Latitude>32.792761</Latitude>
    <Longitude>34.995336</Longitude>
    <MaxReading>98</MaxReading>
  </Volunteer>
  <Volunteer>
    <Id>214485302</Id>
    <FullName>Rotem Mizrahi</FullName>
    <PhoneNumber>0543456789</PhoneNumber>
    <Email>rotem.mizrahi@example.com</Email>
    <TypeDistance>Aerial</TypeDistance>
    <Job>Volunteer</Job>
    <Active>true</Active>
    <Password>Go!4ItNow</Password>
    <FullAddress>Herzl Street 5, Netanya, Israel</FullAddress>
    <Latitude>32.303342</Latitude>
    <Longitude>35.125519</Longitude>
    <MaxReading>22</MaxReading>
  </Volunteer>
  <Volunteer>
    <Id>214545303</Id>
    <FullName>Yoav Biton</FullName>
    <PhoneNumber>0504567890</PhoneNumber>
    <Email>yoav.biton@example.com</Email>
    <TypeDistance>Aerial</TypeDistance>
    <Job>Volunteer</Job>
    <Active>true</Active>
    <Password>H@ppyD@y1s</Password>
    <FullAddress>Jabotinsky Street 20, Petah Tikva, Israel</FullAddress>
    <Latitude>32.089587</Latitude>
    <Longitude>34.770817</Longitude>
    <MaxReading>26</MaxReading>
  </Volunteer>
  <Volunteer>
    <Id>214554958</Id>
    <FullName>Maya Peretz</FullName>
    <PhoneNumber>0555678901</PhoneNumber>
    <Email>maya.peretz@example.com</Email>
    <TypeDistance>Aerial</TypeDistance>
    <Job>Volunteer</Job>
    <Active>true</Active>
    <Password>S#1lverKey</Password>
    <FullAddress>Ben Gurion Boulevard 50, Ashdod, Israel</FullAddress>
    <Latitude>31.791658</Latitude>
    <Longitude>34.651074</Longitude>
    <MaxReading>57</MaxReading>
  </Volunteer>
  <Volunteer>
    <Id>214616104</Id>
    <FullName>Daniel Avrahami</FullName>
    <PhoneNumber>0546789012</PhoneNumber>
    <Email>daniel.avrahami@example.com</Email>
    <TypeDistance>Aerial</TypeDistance>
    <Job>Volunteer</Job>
    <Active>true</Active>
    <Password>GooD1234</Password>
    <FullAddress>Yigal Alon Street 30, Tel Aviv, Israel</FullAddress>
    <Latitude>32.109166</Latitude>
    <Longitude>34.811118</Longitude>
    <MaxReading>74</MaxReading>
  </Volunteer>
  <Volunteer>
    <Id>214631426</Id>
    <FullName>Tamar Malka</FullName>
    <PhoneNumber>0527890123</PhoneNumber>
    <Email>tamar.malka@example.com</Email>
    <TypeDistance>Aerial</TypeDistance>
    <Job>Volunteer</Job>
    <Active>true</Active>
    <Password>Tricky5</Password>
    <FullAddress>Independence Square 8, Hadera, Israel</FullAddress>
    <Latitude>32.43645</Latitude>
    <Longitude>34.91956</Longitude>
    <MaxReading>85</MaxReading>
  </Volunteer>
  <Volunteer>
    <Id>214664260</Id>
    <FullName>Yael Adi</FullName>
    <PhoneNumber>0548901234</PhoneNumber>
    <Email>yael.adi@example.com</Email>
    <TypeDistance>Aerial</TypeDistance>
    <Job>Volunteer</Job>
    <Active>true</Active>
    <Password>R3liable</Password>
    <FullAddress>David HaMelech Street 12, Eilat, Israel</FullAddress>
    <Latitude>29.55805</Latitude>
    <Longitude>34.94821</Longitude>
    <MaxReading>50</MaxReading>
  </Volunteer>
  <Volunteer>
    <Id>214675688</Id>
    <FullName>Ron Hazan</FullName>
    <PhoneNumber>0549012345</PhoneNumber>
    <Email>ron.hazan@example.com</Email>
    <TypeDistance>Aerial</TypeDistance>
    <Job>Volunteer</Job>
    <Active>true</Active>
    <Password>C0d3!2024</Password>
    <FullAddress>Hanegev Boulevard 3, Beersheba, Israel</FullAddress>
    <Latitude>31.257023</Latitude>
    <Longitude>34.785262</Longitude>
    <MaxReading>35</MaxReading>
  </Volunteer>
  <Volunteer>
    <Id>214736456</Id>
    <FullName>Yonatan Green</FullName>
    <PhoneNumber>0530123456</PhoneNumber>
    <Email>yonatan.green@example.com</Email>
    <TypeDistance>Aerial</TypeDistance>
    <Job>Volunteer</Job>
    <Active>true</Active>
    <Password>J@vaC0d3r</Password>
    <FullAddress>Emek Refaim 43, Jerusalem, Israel</FullAddress>
    <Latitude>31.7619324</Latitude>
    <Longitude>35.2179409</Longitude>
    <MaxReading>51</MaxReading>
  </Volunteer>
  <Volunteer>
    <Id>214736688</Id>
    <FullName>Michal Cohen</FullName>
    <PhoneNumber>0541234568</PhoneNumber>
    <Email>michal.cohen@example.com</Email>
    <TypeDistance>Aerial</TypeDistance>
    <Job>Volunteer</Job>
    <Active>true</Active>
    <Password>Adm!n$2024</Password>
    <FullAddress>HaAtzmaut Boulevard 2, Bat Yam, Israel</FullAddress>
    <Latitude>32.096611</Latitude>
    <Longitude>34.779417</Longitude>
    <MaxReading>36</MaxReading>
  </Volunteer>
  <Volunteer>
    <Id>214763252</Id>
    <FullName>Yuval Levy</FullName>
    <PhoneNumber>0502345679</PhoneNumber>
    <Email>yuval.levy@example.com</Email>
    <TypeDistance>Aerial</TypeDistance>
    <Job>Volunteer</Job>
    <Active>true</Active>
    <Password>S@lute1</Password>
    <FullAddress>Allenby Street 35, Tel Aviv, Israel</FullAddress>
    <Latitude>32.062991</Latitude>
    <Longitude>34.772842</Longitude>
    <MaxReading>15</MaxReading>
  </Volunteer>
  <Volunteer>
    <Id>214773020</Id>
    <FullName>Ofir Dayan</FullName>
    <PhoneNumber>0583456780</PhoneNumber>
    <Email>ofir.dayan@example.com</Email>
    <TypeDistance>Aerial</TypeDistance>
    <Job>Volunteer</Job>
    <Active>true</Active>
    <Password>3asY_p@ss</Password>
    <FullAddress>Namal Street 4, Ashkelon, Israel</FullAddress>
    <Latitude>31.437793</Latitude>
    <Longitude>34.4091</Longitude>
    <MaxReading>22</MaxReading>
  </Volunteer>
  <Volunteer>
    <Id>214776742</Id>
    <FullName>Alon Goldberg</FullName>
    <PhoneNumber>0544567891</PhoneNumber>
    <Email>alon.goldberg@example.com</Email>
    <TypeDistance>Aerial</TypeDistance>
    <Job>Volunteer</Job>
    <Active>true</Active>
    <Password>BlueSky9</Password>
    <FullAddress>Sokolov Street 22, Rishon LeZion, Israel</FullAddress>
    <Latitude>32.062593</Latitude>
    <Longitude>34.776051</Longitude>
    <MaxReading>20</MaxReading>
  </Volunteer>
  <Volunteer>
    <Id>214786972</Id>
    <FullName>Shira Sharabi</FullName>
    <PhoneNumber>0555678902</PhoneNumber>
    <Email>shira.sharabi@example.com</Email>
    <TypeDistance>Aerial</TypeDistance>
    <Job>Volunteer</Job>
    <Active>true</Active>
    <Password>Zaq12wsx</Password>
    <FullAddress>Hertzel Boulevard 9, Holon, Israel</FullAddress>
    <Latitude>32.008484</Latitude>
    <Longitude>34.780119</Longitude>
    <MaxReading>41</MaxReading>
  </Volunteer>
  <Volunteer>
    <Id>326047701</Id>
    <FullName>Ayelet Benisty</FullName>
    <PhoneNumber>0556882236</PhoneNumber>
    <Email>admin@example.com</Email>
    <TypeDistance>Aerial</TypeDistance>
    <Job>Manager</Job>
    <Active>true</Active>
    <Password>Zaq12wsx</Password>
    <FullAddress>Ein Gedi 37,Beer sheva, Israel</FullAddress>
    <Latitude>31.2509036</Latitude>
    <Longitude>34.7668511</Longitude>
    <MaxReading>50</MaxReading>
  </Volunteer>
</ArrayOfVolunteer>