<?xml version="1.0" encoding="utf-8"?>
<ArrayOfVolunteer>
  <Volunteer>
    <Id>725494580</Id>
    <FullName>Noa Levy</FullName>
    <PhoneNumber>054-1234567</PhoneNumber>
    <Email>noa.levy@example.com</Email>
    <TypeDistance>Aerial</TypeDistance>
    <Job>Volunteer</Job>
    <Active>true</Active>
    <Password>W1nter2024</Password>
    <FullAddress>King George St 20, Jerusalem, Israel</FullAddress>
    <Latitude>31.7554</Latitude>
    <Longitude>35.3058</Longitude>
    <MaxReading>30</MaxReading>
  </Volunteer>
  <Volunteer>
    <Id>927048327</Id>
    <FullName>Omer Cohen</FullName>
    <PhoneNumber>053-2345678</PhoneNumber>
    <Email>omer.cohen@example.com</Email>
    <TypeDistance>Aerial</TypeDistance>
    <Job>Volunteer</Job>
    <Active>true</Active>
    <Password>M@rk3tX9</Password>
    <FullAddress>Jaffa St 45, Jerusalem, Israel</FullAddress>
    <Latitude>31.7612</Latitude>
    <Longitude>35.3184</Longitude>
    <MaxReading>23</MaxReading>
  </Volunteer>
  <Volunteer>
    <Id>741310272</Id>
    <FullName>Rotem Mizrahi</FullName>
    <PhoneNumber>054-3456789</PhoneNumber>
    <Email>rotem.mizrahi@example.com</Email>
    <TypeDistance>Aerial</TypeDistance>
    <Job>Volunteer</Job>
    <Active>true</Active>
    <Password>Go!4ItNow</Password>
    <FullAddress>Agripas St 10, Jerusalem, Israel</FullAddress>
    <Latitude>31.763</Latitude>
    <Longitude>35.3235</Longitude>
    <MaxReading>30</MaxReading>
  </Volunteer>
  <Volunteer>
    <Id>874010418</Id>
    <FullName>Yoav Biton</FullName>
    <PhoneNumber>050-4567890</PhoneNumber>
    <Email>yoav.biton@example.com</Email>
    <TypeDistance>Aerial</TypeDistance>
    <Job>Volunteer</Job>
    <Active>true</Active>
    <Password>H@ppyD@ys</Password>
    <FullAddress>HaPalmach St 25, Jerusalem, Israel</FullAddress>
    <Latitude>31.7489</Latitude>
    <Longitude>35.3142</Longitude>
    <MaxReading>9</MaxReading>
  </Volunteer>
  <Volunteer>
    <Id>983706628</Id>
    <FullName>Maya Peretz</FullName>
    <PhoneNumber>055-5678901</PhoneNumber>
    <Email>maya.peretz@example.com</Email>
    <TypeDistance>Aerial</TypeDistance>
    <Job>Volunteer</Job>
    <Active>true</Active>
    <Password>S#1lverKey</Password>
    <FullAddress>Emek Refaim St 43, Jerusalem, Israel</FullAddress>
    <Latitude>31.7513</Latitude>
    <Longitude>35.317</Longitude>
    <MaxReading>80</MaxReading>
  </Volunteer>
  <Volunteer>
    <Id>777726517</Id>
    <FullName>Daniel Avrahami</FullName>
    <PhoneNumber>054-6789012</PhoneNumber>
    <Email>daniel.avrahami@example.com</Email>
    <TypeDistance>Aerial</TypeDistance>
    <Job>Volunteer</Job>
    <Active>true</Active>
    <Password>GooD1234</Password>
    <FullAddress>Shlomzion HaMalka St 18, Jerusalem, Israel</FullAddress>
    <Latitude>31.7562</Latitude>
    <Longitude>35.3198</Longitude>
    <MaxReading>32</MaxReading>
  </Volunteer>
  <Volunteer>
    <Id>824030636</Id>
    <FullName>Tamar Malka</FullName>
    <PhoneNumber>052-7890123</PhoneNumber>
    <Email>tamar.malka@example.com</Email>
    <TypeDistance>Aerial</TypeDistance>
    <Job>Volunteer</Job>
    <Active>true</Active>
    <Password>Tricky5</Password>
    <FullAddress>Hillel St 7, Jerusalem, Israel</FullAddress>
    <Latitude>31.7581</Latitude>
    <Longitude>35.3107</Longitude>
    <MaxReading>46</MaxReading>
  </Volunteer>
  <Volunteer>
    <Id>791909977</Id>
    <FullName>Yael Adi</FullName>
    <PhoneNumber>054-8901234</PhoneNumber>
    <Email>yael.adi@example.com</Email>
    <TypeDistance>Aerial</TypeDistance>
    <Job>Volunteer</Job>
    <Active>true</Active>
    <Password>R3liable</Password>
    <FullAddress>Derech Hebron 105, Jerusalem, Israel</FullAddress>
    <Latitude>31.7329</Latitude>
    <Longitude>35.3124</Longitude>
    <MaxReading>51</MaxReading>
  </Volunteer>
  <Volunteer>
    <Id>786290524</Id>
    <FullName>Ron Hazan</FullName>
    <PhoneNumber>054-9012345</PhoneNumber>
    <Email>ron.hazan@example.com</Email>
    <TypeDistance>Aerial</TypeDistance>
    <Job>Volunteer</Job>
    <Active>true</Active>
    <Password>C0d3!2024</Password>
    <FullAddress>Bezalel St 12, Jerusalem, Israel</FullAddress>
    <Latitude>31.7574</Latitude>
    <Longitude>35.3135</Longitude>
    <MaxReading>25</MaxReading>
  </Volunteer>
  <Volunteer>
    <Id>800739506</Id>
    <FullName>Yonatan Green</FullName>
    <PhoneNumber>053-0123456</PhoneNumber>
    <Email>yonatan.green@example.com</Email>
    <TypeDistance>Aerial</TypeDistance>
    <Job>Volunteer</Job>
    <Active>true</Active>
    <Password>J@vaC0d3r</Password>
    <FullAddress>HaNeviim St 29, Jerusalem, Israel</FullAddress>
    <Latitude>31.7608</Latitude>
    <Longitude>35.3089</Longitude>
    <MaxReading>40</MaxReading>
  </Volunteer>
  <Volunteer>
    <Id>989913601</Id>
    <FullName>Michal Cohen</FullName>
    <PhoneNumber>054-1234568</PhoneNumber>
    <Email>michal.cohen@example.com</Email>
    <TypeDistance>Aerial</TypeDistance>
    <Job>Volunteer</Job>
    <Active>true</Active>
    <Password>Adm!n$2024</Password>
    <FullAddress>Shivtei Israel St 15, Jerusalem, Israel</FullAddress>
    <Latitude>31.7611</Latitude>
    <Longitude>35.306</Longitude>
    <MaxReading>20</MaxReading>
  </Volunteer>
  <Volunteer>
    <Id>798822408</Id>
    <FullName>Yuval Levy</FullName>
    <PhoneNumber>050-2345679</PhoneNumber>
    <Email>yuval.levy@example.com</Email>
    <TypeDistance>Aerial</TypeDistance>
    <Job>Volunteer</Job>
    <Active>true</Active>
    <Password>S@lute1</Password>
    <FullAddress>Azza St 50, Jerusalem, Israel</FullAddress>
    <Latitude>31.74</Latitude>
    <Longitude>35.3098</Longitude>
    <MaxReading>97</MaxReading>
  </Volunteer>
  <Volunteer>
    <Id>729780894</Id>
    <FullName>Ofir Dayan</FullName>
    <PhoneNumber>058-3456780</PhoneNumber>
    <Email>ofir.dayan@example.com</Email>
    <TypeDistance>Aerial</TypeDistance>
    <Job>Volunteer</Job>
    <Active>true</Active>
    <Password>3asY_p@ss</Password>
    <FullAddress>Yitzhak Kariv St 4, Jerusalem, Israel</FullAddress>
    <Latitude>31.7432</Latitude>
    <Longitude>35.3157</Longitude>
    <MaxReading>57</MaxReading>
  </Volunteer>
  <Volunteer>
    <Id>763869672</Id>
    <FullName>Alon Goldberg</FullName>
    <PhoneNumber>054-4567891</PhoneNumber>
    <Email>alon.goldberg@example.com</Email>
    <TypeDistance>Aerial</TypeDistance>
    <Job>Volunteer</Job>
    <Active>true</Active>
    <Password>BlueSky9</Password>
    <FullAddress>Prophets St 23, Jerusalem, Israel</FullAddress>
    <Latitude>31.7539</Latitude>
    <Longitude>35.3081</Longitude>
    <MaxReading>8</MaxReading>
  </Volunteer>
  <Volunteer>
    <Id>785701778</Id>
    <FullName>Shira Sharabi</FullName>
    <PhoneNumber>055-5678902</PhoneNumber>
    <Email>shira.sharabi@example.com</Email>
    <TypeDistance>Aerial</TypeDistance>
    <Job>Volunteer</Job>
    <Active>true</Active>
    <Password>X@mplE7</Password>
    <FullAddress>Ben Yehuda St 1, Jerusalem, Israel</FullAddress>
    <Latitude>31.7591</Latitude>
    <Longitude>35.3148</Longitude>
    <MaxReading>29</MaxReading>
  </Volunteer>
  <Volunteer>
    <Id>652398308</Id>
    <FullName>Admin Manager</FullName>
    <PhoneNumber>050-1111111</PhoneNumber>
    <Email>admin@example.com</Email>
    <TypeDistance>Aerial</TypeDistance>
    <Job>Manager</Job>
    <Active>true</Active>
    <Password>Password246</Password>
    <FullAddress />
    <Latitude />
    <Longitude />
    <MaxReading />
  </Volunteer>
</ArrayOfVolunteer>