<?xml version="1.0" encoding="utf-8"?>
<ArrayOfVolunteer>
  <Volunteer>
    <Id>214429151</Id>
    <FullName>Noa Levy</FullName>
    <PhoneNumber>0541234567</PhoneNumber>
    <Email>noa.levy@example.com</Email>
    <TypeDistance>Aerial</TypeDistance>
    <Job>Volunteer</Job>
    <Active>true</Active>
    <Password>W1nter2024</Password>
    <FullAddress>King George 20, Jerusalem, Israel</FullAddress>
    <Latitude>31.7554</Latitude>
    <Longitude>35.3058</Longitude>
    <MaxReading>74</MaxReading>
  </Volunteer>
  <Volunteer>
    <Id>214432767</Id>
    <FullName>Omer Cohen</FullName>
    <PhoneNumber>0532345678</PhoneNumber>
    <Email>omer.cohen@example.com</Email>
    <TypeDistance>Aerial</TypeDistance>
    <Job>Volunteer</Job>
    <Active>true</Active>
    <Password>M@rk3tX9</Password>
    <FullAddress>Jaffa 45, Jerusalem, Israel</FullAddress>
    <Latitude>31.7612</Latitude>
    <Longitude>35.3184</Longitude>
    <MaxReading>22</MaxReading>
  </Volunteer>
  <Volunteer>
    <Id>214485302</Id>
    <FullName>Rotem Mizrahi</FullName>
    <PhoneNumber>0543456789</PhoneNumber>
    <Email>rotem.mizrahi@example.com</Email>
    <TypeDistance>Aerial</TypeDistance>
    <Job>Volunteer</Job>
    <Active>true</Active>
    <Password>Go!4ItNow</Password>
    <FullAddress>Agripas 10, Jerusalem, Israel</FullAddress>
    <Latitude>31.763</Latitude>
    <Longitude>35.3235</Longitude>
    <MaxReading>74</MaxReading>
  </Volunteer>
  <Volunteer>
    <Id>214545303</Id>
    <FullName>Yoav Biton</FullName>
    <PhoneNumber>0504567890</PhoneNumber>
    <Email>yoav.biton@example.com</Email>
    <TypeDistance>Aerial</TypeDistance>
    <Job>Volunteer</Job>
    <Active>true</Active>
    <Password>H@ppyD@ys</Password>
    <FullAddress>HaPalmach 25, Jerusalem, Israel</FullAddress>
    <Latitude>31.7489</Latitude>
    <Longitude>35.3142</Longitude>
    <MaxReading>45</MaxReading>
  </Volunteer>
  <Volunteer>
    <Id>214554958</Id>
    <FullName>Maya Peretz</FullName>
    <PhoneNumber>0555678901</PhoneNumber>
    <Email>maya.peretz@example.com</Email>
    <TypeDistance>Aerial</TypeDistance>
    <Job>Volunteer</Job>
    <Active>true</Active>
    <Password>S#1lverKey</Password>
    <FullAddress>Emek Refaim 43, Jerusalem, Israel</FullAddress>
    <Latitude>31.7513</Latitude>
    <Longitude>35.317</Longitude>
    <MaxReading>80</MaxReading>
  </Volunteer>
  <Volunteer>
    <Id>214616104</Id>
    <FullName>Daniel Avrahami</FullName>
    <PhoneNumber>0546789012</PhoneNumber>
    <Email>daniel.avrahami@example.com</Email>
    <TypeDistance>Aerial</TypeDistance>
    <Job>Volunteer</Job>
    <Active>true</Active>
    <Password>GooD1234</Password>
    <FullAddress>Shlomzion HaMalka 18, Jerusalem, Israel</FullAddress>
    <Latitude>31.7562</Latitude>
    <Longitude>35.3198</Longitude>
    <MaxReading>90</MaxReading>
  </Volunteer>
  <Volunteer>
    <Id>214631426</Id>
    <FullName>Tamar Malka</FullName>
    <PhoneNumber>0527890123</PhoneNumber>
    <Email>tamar.malka@example.com</Email>
    <TypeDistance>Aerial</TypeDistance>
    <Job>Volunteer</Job>
    <Active>true</Active>
    <Password>Tricky5</Password>
    <FullAddress>Hillel 7, Jerusalem, Israel</FullAddress>
    <Latitude>31.7581</Latitude>
    <Longitude>35.3107</Longitude>
    <MaxReading>92</MaxReading>
  </Volunteer>
  <Volunteer>
    <Id>214664260</Id>
    <FullName>Yael Adi</FullName>
    <PhoneNumber>0548901234</PhoneNumber>
    <Email>yael.adi@example.com</Email>
    <TypeDistance>Aerial</TypeDistance>
    <Job>Volunteer</Job>
    <Active>true</Active>
    <Password>R3liable</Password>
    <FullAddress>Derech Hebron 105, Jerusalem, Israel</FullAddress>
    <Latitude>31.7329</Latitude>
    <Longitude>35.3124</Longitude>
    <MaxReading>59</MaxReading>
  </Volunteer>
  <Volunteer>
    <Id>214675688</Id>
    <FullName>Ron Hazan</FullName>
    <PhoneNumber>0549012345</PhoneNumber>
    <Email>ron.hazan@example.com</Email>
    <TypeDistance>Aerial</TypeDistance>
    <Job>Volunteer</Job>
    <Active>true</Active>
    <Password>C0d3!2024</Password>
    <FullAddress>Bezalel 12, Jerusalem, Israel</FullAddress>
    <Latitude>31.7574</Latitude>
    <Longitude>35.3135</Longitude>
    <MaxReading>81</MaxReading>
  </Volunteer>
  <Volunteer>
    <Id>214736456</Id>
    <FullName>Yonatan Green</FullName>
    <PhoneNumber>0530123456</PhoneNumber>
    <Email>yonatan.green@example.com</Email>
    <TypeDistance>Aerial</TypeDistance>
    <Job>Volunteer</Job>
    <Active>true</Active>
    <Password>J@vaC0d3r</Password>
    <FullAddress>HaNeviim 29, Jerusalem, Israel</FullAddress>
    <Latitude>31.7608</Latitude>
    <Longitude>35.3089</Longitude>
    <MaxReading>39</MaxReading>
  </Volunteer>
  <Volunteer>
    <Id>214736688</Id>
    <FullName>Michal Cohen</FullName>
    <PhoneNumber>0541234568</PhoneNumber>
    <Email>michal.cohen@example.com</Email>
    <TypeDistance>Aerial</TypeDistance>
    <Job>Volunteer</Job>
    <Active>true</Active>
    <Password>Adm!n$2024</Password>
    <FullAddress>Shivtei Israel 15, Jerusalem, Israel</FullAddress>
    <Latitude>31.7611</Latitude>
    <Longitude>35.306</Longitude>
    <MaxReading>9</MaxReading>
  </Volunteer>
  <Volunteer>
    <Id>214763252</Id>
    <FullName>Yuval Levy</FullName>
    <PhoneNumber>0502345679</PhoneNumber>
    <Email>yuval.levy@example.com</Email>
    <TypeDistance>Aerial</TypeDistance>
    <Job>Volunteer</Job>
    <Active>true</Active>
    <Password>S@lute1</Password>
    <FullAddress>Azza 50, Jerusalem, Israel</FullAddress>
    <Latitude>31.74</Latitude>
    <Longitude>35.3098</Longitude>
    <MaxReading>51</MaxReading>
  </Volunteer>
  <Volunteer>
    <Id>214773020</Id>
    <FullName>Ofir Dayan</FullName>
    <PhoneNumber>0583456780</PhoneNumber>
    <Email>ofir.dayan@example.com</Email>
    <TypeDistance>Aerial</TypeDistance>
    <Job>Volunteer</Job>
    <Active>true</Active>
    <Password>3asY_p@ss</Password>
    <FullAddress>Yitzhak Kariv 4, Jerusalem, Israel</FullAddress>
    <Latitude>31.7432</Latitude>
    <Longitude>35.3157</Longitude>
    <MaxReading>56</MaxReading>
  </Volunteer>
  <Volunteer>
    <Id>214776742</Id>
    <FullName>Alon Goldberg</FullName>
    <PhoneNumber>0544567891</PhoneNumber>
    <Email>alon.goldberg@example.com</Email>
    <TypeDistance>Aerial</TypeDistance>
    <Job>Volunteer</Job>
    <Active>true</Active>
    <Password>BlueSky9</Password>
    <FullAddress>Prophets 23, Jerusalem, Israel</FullAddress>
    <Latitude>31.7539</Latitude>
    <Longitude>35.3081</Longitude>
    <MaxReading>81</MaxReading>
  </Volunteer>
  <Volunteer>
    <Id>214786972</Id>
    <FullName>Shira Sharabi</FullName>
    <PhoneNumber>0555678902</PhoneNumber>
    <Email>shira.sharabi@example.com</Email>
    <TypeDistance>Aerial</TypeDistance>
    <Job>Volunteer</Job>
    <Active>true</Active>
    <Password>X@mplE7</Password>
    <FullAddress>Ben Yehuda 1, Jerusalem, Israel</FullAddress>
    <Latitude>31.7591</Latitude>
    <Longitude>35.3148</Longitude>
    <MaxReading>57</MaxReading>
  </Volunteer>
  <Volunteer>
    <Id>112527541</Id>
    <FullName>Admin Manager</FullName>
    <PhoneNumber>050-1111111</PhoneNumber>
    <Email>admin@example.com</Email>
    <TypeDistance>Aerial</TypeDistance>
    <Job>Manager</Job>
    <Active>true</Active>
    <Password>Password246</Password>
    <FullAddress />
    <Latitude />
    <Longitude />
    <MaxReading />
  </Volunteer>
</ArrayOfVolunteer>